[{"id":"124124124","title":"FOLK FEST CUBA SI","dances":"Bachata, Salsa, Merengue","startDate":"2022-01-30","city":"Berlin","countryCode":"Germany","lat":52.520008,"lon":13.404954,"street":"TEST","housenumber":"TEST","startTime":"23:59","link":"DancePlanner","chatLink":""},{"id":"1234","title":"TEST","dances":"TEST","startDate":"TEST","city":"TEST","countryCode":"TEST","lat":52.023071,"lon":8.533210,"street":"TEST","housenumber":"TEST","startTime":"TEST","link":"TEST","chatLink":""},{"id":"7d0d4490-aa9f-4903-854a-b8f6697991a0","title":"Test Event","dances":"Salsa","startDate":"26.02.2022","city":"Berlin","countryCode":"Germany","lat":52.520008,"lon":13.404954,"street":"Stra√üentest","housenumber":"26","startTime":"21:00","link":"No","chatLink":""},{"id":"124124124","title":"FOLK FEST CUBA SI","dances":"Afro Dance","startDate":"2022-01-30","city":"Berlin","countryCode":"Germany","lat":52.520008,"lon":13.404954,"street":"TEST","housenumber":"TEST","startTime":"23:59","link":"DancePlanner","chatLink":""}]
